ADM0,district,Centroid_Lon,Centroid_Lat,Pop
Angola,Bengo,13.840277777777771,-8.867717889908263,372508
Angola,Benguela,13.411311152498968,-12.588043803767846,2084164
Angola,Bié,16.93846210125841,-12.327013052872971,1375016
Angola,Cabinda,12.197634902106444,-5.564152019757088,698504
Angola,Cuando Cubango,18.375,-15.554720279720286,514844
Angola,Cuanza Norte,15.310638661202177,-8.966347168484006,439627
Angola,Cuanza Sul,14.63732087227416,-11.020023545240505,1842522
Angola,Cunene,15.081199186991881,-16.728124151045904,987917
Angola,Huíla,13.507615196349036,-14.901524287151403,2420686
Angola,Huambo,15.74434972636999,-12.752008364106459,1948770
Angola,Luanda,13.256157801814453,-8.833400838688647,6695103
Angola,Lunda Norte,20.736691038620194,-8.425902657423464,838694
Angola,Lunda Sul,20.41115883062085,-9.696563589935238,530712
Angola,Malanje,16.537474686107714,-9.490027799327649,979840
Angola,Moxico,20.491666666666674,-11.911698717948724,744332
Angola,Namibe,12.154984036017623,-15.194332253734842,486378
Angola,Uíge,15.191666666666663,-7.130233486943169,1465215
Angola,Zaire,14.24732896882378,-6.26765710799269,575662
Burundi,Bubanza,29.362459131247107,-3.1370943453053286,449983
Burundi,Bujumbura Mairie,29.369151433869803,-3.371825401767751,644646
Burundi,Bujumbura Rural,29.432858333333314,-3.4409135421334867,751251
Burundi,Bururi,29.71127247579531,-3.8701722618226455,770690
Burundi,Cankuzo,30.745223152022334,-3.1722835891521015,303548
Burundi,Cibitoke,29.268540183112947,-2.8451279584936486,617308
Burundi,Gitega,29.941736652669476,-3.4554839805049653,956613
Burundi,Karuzi,30.103584956709966,-3.113262564991331,587635
Burundi,Kayanza,29.74758025585325,-3.0167988881811425,783029
Burundi,Kirundo,30.134655768208376,-2.5567499538476994,837929
Burundi,Makamba,29.832908704883238,-4.201299135081925,572695
Burundi,Muramvya,29.63332990397805,-3.270495912511521,386470
Burundi,Muyinga,30.233525345622127,-2.7820021744987145,849621
Burundi,Mwaro,29.762121529231194,-3.4686493252067976,365152
Burundi,Ngozi,29.842731629392972,-2.8759033409844363,880722
Burundi,Rutana,30.14833333333334,-3.852180342695121,452978
Burundi,Ruyigi,30.24818262793437,-3.4721819073717057,534119
Central African Republic,Bamingui-Bangoran,20.612516512549547,8.555959137343919,67470
Central African Republic,Bangui,18.556611773411987,4.380089833712432,357001
Central African Republic,Basse-Kotto,21.26987179487182,4.678302394404085,342117
Central African Republic,Haut-Mbomou,26.476541593949975,5.366824494949498,64507
Central African Republic,Haute-Kotto,21.985116378389932,6.549653677719178,118001
Central African Republic,Kémo,19.12682926829268,5.812923351158645,166133
Central African Republic,Lobaye,17.99444444444444,4.173463810279458,369490
Central African Republic,Mambéré-Kadéï,15.615476190476187,4.517898322851153,494735
Central African Republic,Mbomou,22.87806176783812,4.81773346463153,235228
Central African Republic,Nana-Grébizi,19.182656395891684,6.997443840579706,150620
Central African Republic,Nana-Mambéré,15.601984581329674,5.926486723913229,315437
Central African Republic,Ombella-M'Poko,18.53437055495837,4.411367703485027,1084425
Central African Republic,Ouaka,20.673113905325437,5.768388048492653,384956
Central African Republic,Ouham-Pendé,15.648293357933596,7.0193715552360345,555642
Central African Republic,Ouham,17.857142857142833,6.785729191748942,488039
Central African Republic,Sangha-Mbaéré,16.072714796374328,3.507765357065324,155669
Central African Republic,Vakaga,22.78761222429327,10.27706670274658,64118
Republic of Congo,Bouenza,13.281503864257076,-4.175320485182951,395141
Republic of Congo,Brazzaville,15.283644236381605,-4.262821578541434,1450566
Republic of Congo,Cuvette-Ouest,14.525999999999982,-0.4300323176362042,80232
Republic of Congo,Cuvette,17.2196631924339,-0.8857292897466209,215131
Republic of Congo,Kouilou,11.916502292194451,-4.786376992185112,332172
Republic of Congo,Lékoumou,13.345348837209286,-3.533976715686279,122370
Republic of Congo,Likouala,18.054567254380146,1.6306614961339534,200579
Republic of Congo,Niari,12.832692307692326,-4.1216293929712435,292100
Republic of Congo,Plateaux,15.881025923883072,-1.8760413908745903,225929
Republic of Congo,Pointe Noire,11.877724178042342,-4.785168696086416,706449
Republic of Congo,Pool,15.259805979643772,-4.196230800323377,626918
Republic of Congo,Sangha,16.05283680011928,1.6115454689480373,113385
Rwanda,Amajyaruguru,29.870573689416403,-1.5808446517962267,2077663
Rwanda,Amajyepfo,29.743739176582324,-2.350002684275509,3116137
Rwanda,Iburasirazuba,30.4640259953932,-1.966996311259436,3152342
Rwanda,Iburengerazuba,29.47704441677044,-1.9676426002297376,2974186
Rwanda,Umujyi wa Kigali,30.079744134304207,-1.9504309552488621,1358951
South Sudan,Central Equatoria,31.022500000000008,4.562309870550152,1625945
South Sudan,Eastern Equatoria,33.502777777777766,4.63507756380865,1315601
South Sudan,Jungoli,31.949444444444453,7.705026702732681,1916527
South Sudan,Lakes,30.095687984496124,6.767928748964366,1020181
South Sudan,North Bahr-al-Ghazal,28.002230971128597,9.093262538138816,1224646
South Sudan,Unity,29.365090090090092,9.13103132890194,965863
South Sudan,Upper Nile,31.573768838257962,9.425868482718215,1613486
South Sudan,Warap,28.400000000000006,8.211197031497832,1376004
South Sudan,West Bahr-al-Ghazal,27.98502805049091,7.697031674374216,295083
South Sudan,West Equatoria,29.458536585365863,4.9981343770384825,910853
Tanzania,Arusha,36.68592147806007,-3.369850509740587,1923832
Tanzania,Dar es Salaam,39.25950014031906,-6.8211745005624635,4768028
Tanzania,Dodoma,35.842820867959375,-6.124978716976983,2365788
Tanzania,Geita,32.047119341563786,-3.0257548867361805,1966246
Tanzania,Iringa,35.79192898272552,-7.909303119420244,1068945
Tanzania,Kagera,31.259500000000003,-1.7054675011514888,2812009
Tanzania,Katavi,31.070965884159705,-6.345952630997132,642184
Tanzania,Kigoma,29.961504922644167,-4.635871493254925,2423784
Tanzania,Kilimanjaro,37.34151632302408,-3.36591400032961,1845442
Tanzania,Lindi,39.40352490421455,-9.98937156024138,978477
Tanzania,Manyara,35.388444444444445,-4.248967587172615,1622864
Tanzania,Mara,34.06369047619049,-1.6372452352098747,1982032
Tanzania,Mbeya,33.41597656604114,-8.932038309971261,3058842
Tanzania,Morogoro,37.47126572327042,-6.902590554791388,2519862
Tanzania,Mtwara,38.82104026636796,-10.71862093214996,1442752
Tanzania,Mwanza,32.80275080906148,-2.586903696897892,3147202
Tanzania,Njombe,34.42276584460353,-9.29235801511922,796319
Tanzania,Pemba North,39.80734814814815,-5.0382722474165575,239163
Tanzania,Pemba South,39.691261158284334,-5.311302305721611,220120
Tanzania,Pwani,38.9019345238095,-6.968455412725362,1247816
Tanzania,Rukwa,31.64621645227888,-8.116487984855524,1136259
Tanzania,Ruvuma,35.083171296296285,-10.796299141547166,1563928
Tanzania,Shinyanga,33.05404040404039,-3.743986079672325,1744334
Tanzania,Simiyu,33.95308798646363,-2.917481063246427,1814912
Tanzania,Singida,34.748967795210575,-4.816564745609156,1554548
Tanzania,Tabora,32.814460784313724,-4.865078024453027,2600003
Tanzania,Tanga,39.082958571817926,-5.087489887419579,2316584
Tanzania,Zanzibar North,39.306717451523554,-5.955758971871973,211215
Tanzania,Zanzibar South and Central,39.28061962436371,-6.1886813201113995,137718
Tanzania,Zanzibar West,39.2081066906421,-6.170254345048704,658777
Uganda,Adjumani,31.788787141393442,3.368470848638978,246206
Uganda,Apac,32.62798611111111,2.228550261475874,1042004
Uganda,Arua,30.945935897435902,3.1046966227819013,1300330
Uganda,Bugiri,33.747646233974336,0.4585470085470007,586433
Uganda,Bundibugyo,30.067488262910814,0.733199268413955,305378
Uganda,Bushenyi,30.186449862207724,-0.5343108494008817,1031447
Uganda,Busia,34.02927236315088,0.4284758868366936,309629
Uganda,Gulu,32.29901550340219,2.772063885511159,825154
Uganda,Hoima,31.35663530824658,1.4193980826654098,597094
Uganda,Iganga,33.39388297872341,0.7260425679183271,1034025
Uganda,Jinja,33.22028061566513,0.5369627899145399,496569
Uganda,Kabale,29.98781203566122,-1.2459213038151518,640268
Uganda,Kabarole,30.21414373088686,0.6248765758617623,522031
Uganda,Kaberamaido,33.23052208835344,1.8074001857010131,228662
Uganda,Kalangala,32.384761904761916,-0.33579022988506324,44441
Uganda,Kampala,32.59940348701764,0.3238562316721243,1718831
Uganda,Kamuli,33.45285451197054,1.0144880652118218,1002270
Uganda,Kamwenge,30.557436801881238,0.22986729415754326,424160
Uganda,Kanungu,29.725863509749303,-0.8564272595250344,309118
Uganda,Kapchorwa,34.407594635076265,1.3684652494194864,306676
Uganda,Kasese,30.070520617929674,0.16661303672172778,790901
Uganda,Katakwi,33.80660256410255,2.0117978121304105,460096
Uganda,Kayunga,32.96022255030621,0.7526874595040312,384769
Uganda,Kibale,30.849021084337352,0.9748633599781442,835798
Uganda,Kiboga,31.615699815837957,0.9413197841619905,379517
Uganda,Kisoro,29.6795413319513,-1.2774250754380176,297566
Uganda,Kitgum,33.05929236499068,3.388026295789629,374704
Uganda,Kotido,34.0389344262295,3.083134920634919,468535
Uganda,Kumi,33.88468586387435,1.4179776465626333,611733
Uganda,Kyenjojo,30.780119047619024,0.5936549429657703,731953
Uganda,Lake Albert,30.571040723981895,1.032228987583565,2422
Uganda,Lake Victoria,33.544706879844966,0.13832953682610594,145133
Uganda,Lira,32.89593989769821,2.231108880324456,1193144
Uganda,Luwero,32.44158291457285,0.7383026853473353,681417
Uganda,Masaka,31.75851715147786,-0.3234985396130128,941708
Uganda,Masindi,32.00190637065637,1.8145216948305176,747776
Uganda,Mayuge,33.44818825194622,0.4075533198796961,449954
Uganda,Mbale,34.32955662210034,1.0078273159642208,1093955
Uganda,Mbarara,30.693437755937765,-0.5582859129994944,1636739
Uganda,Moroto,34.41337719298244,2.43764383155397,303189
Uganda,Moyo,31.64551820728289,3.5923893692777256,144733
Uganda,Mpigi,32.01045608927703,0.1620282762370806,540458
Uganda,Mubende,31.69645833333334,0.5021667060165953,1069013
Uganda,Mukono,32.871329322446655,0.3733409246624859,1126220
Uganda,Nakapiripirit,34.637938314011734,1.9061558136319547,297683
Uganda,Nakasongola,32.60284636488342,1.354482502364533,190686
Uganda,Nebbi,31.163026315789466,2.4612357710623627,642759
Uganda,Ntungamo,30.256100555770956,-0.889432996321176,656937
Uganda,Pader,33.10082070707071,2.8975199562250396,432670
Uganda,Pallisa,34.10951004525339,1.1362172623599918,833938
Uganda,Rakai,31.5415612359067,-0.6261194516120696,626123
Uganda,Rukungiri,29.925996270121715,-0.7934617701829438,375126
Uganda,Sembabule,31.475221926320472,-0.1423049442697959,259874
Uganda,Sironko,34.36057226612286,1.2102777609865143,441547
Uganda,Soroti,33.59394870294517,1.627355154251319,641915
Uganda,Tororo,34.040217188665196,0.7693868109305413,817724
Uganda,Wakiso,32.64665625765369,0.3387711947755605,1945436
Uganda,Yumbe,31.245869574767198,3.4647567232533305,506418
Zambia,Central,28.454561240629943,-14.452030278548591,1589322
Zambia,Copperbelt,28.21831088992974,-12.850005664752715,2301480
Zambia,Eastern,32.37437106918239,-13.825657374456313,1725659
Zambia,Luapula,28.73555555555555,-10.507938970778383,1084176
Zambia,Lusaka,28.31005445777697,-15.397518245343207,2580331
Zambia,Muchinga,32.361111111111114,-10.725354861603975,881297
Zambia,North-Western,26.120662100456627,-12.605320033250223,810748
Zambia,Northern,31.586956521739125,-9.809885057471263,1310159
Zambia,Southern,26.921241830065355,-16.580654015493508,1819952
Zambia,Western,23.13065412822334,-15.275535361459788,973381
Democratic Republic of the Congo,Équateur,19.5,-0.5916666666666686,1241074
Democratic Republic of the Congo,Mbandaka,18.291666666666657,-0.1916666666666771,365938
Democratic Republic of the Congo,Mongala,21.458333333333343,0.5083333333333258,1839945
Democratic Republic of the Congo,Nord-Ubangi,20.46666666666667,4.049999999999997,1339889
Democratic Republic of the Congo,Sud-Ubangi,19.5,2.316666666666663,2574867
Democratic Republic of the Congo,Tshuapa,21.758333333333326,-2.316666666666677,1691605
Democratic Republic of the Congo,Bandundu,17.366666666666674,-3.3666666666666742,165665
Democratic Republic of the Congo,Kwango,17.974999999999994,-6.76666666666668,2217119
Democratic Republic of the Congo,Kwilu,18.558333333333337,-4.9750000000000085,5502658
Democratic Republic of the Congo,Mai-Ndombe,17.96666666666667,-2.9666666666666686,1900289
Democratic Republic of the Congo,Bas-Fleuve,13.074999999999989,-5.466666666666669,1487954
Democratic Republic of the Congo,Boma,12.808333333333337,-6.091666666666669,529379
Democratic Republic of the Congo,Cataractes,14.416666666666657,-6.200000000000003,1948023
Democratic Republic of the Congo,Lukaya,15.708333333333343,-6.108333333333334,1017326
Democratic Republic of the Congo,Matadi,13.491666666666674,-5.825000000000003,372258
Democratic Republic of the Congo,Kananga,22.46666666666667,-6.041666666666671,784693
Democratic Republic of the Congo,Kasaï,20.933333333333337,-6.050000000000011,2876421
Democratic Republic of the Congo,Lulua,22.316666666666663,-6.76666666666668,2619272
Democratic Republic of the Congo,Kabinda,25.03333333333333,-6.39166666666668,2292592
Democratic Republic of the Congo,Mbuji-Mayi,23.599999999999994,-6.2250000000000085,1324597
Democratic Republic of the Congo,Sankuru,23.35833333333332,-4.558333333333337,1977757
Democratic Republic of the Congo,Tshilenge,23.48333333333332,-6.308333333333337,1617602
Democratic Republic of the Congo,Haut-Lomami,26.125,-10.50833333333334,1744399
Democratic Republic of the Congo,Haut-Shaba,27.85833333333332,-11.26666666666668,1608197
Democratic Republic of the Congo,Kolwezi,26.066666666666663,-11.650000000000006,813679
Democratic Republic of the Congo,Lualaba,22.933333333333337,-11.13333333333334,703281
Democratic Republic of the Congo,Lubumbashi,27.48333333333332,-11.64166666666668,1101886
Democratic Republic of the Congo,Tanganika,27.650000000000006,-8.341666666666669,1797955
Democratic Republic of the Congo,Kinshasa,15.824999999999989,-5.14166666666668,9016276
Democratic Republic of the Congo,Bukavu,28.808333333333337,-2.6583333333333456,409864
Democratic Republic of the Congo,Maniema,26.383333333333326,-4.1000000000000085,2350410
Democratic Republic of the Congo,Nord-Kivu,28.69999999999999,-2.2750000000000057,6698179
Democratic Republic of the Congo,Sud-Kivu,28.17500000000001,-4.300000000000011,4906289
Democratic Republic of the Congo,Bas-Uele,25.333333333333343,2.9666666666666544,1322664
Democratic Republic of the Congo,Haut-Uele,29.44999999999999,2.8333333333333286,2168850
Democratic Republic of the Congo,Ituri,29.991666666666674,1.183333333333323,4234837
Democratic Republic of the Congo,Kisangani,25.15833333333333,0.4583333333333286,771519
Democratic Republic of the Congo,Tshopo,24.59166666666667,-1.1000000000000085,1969909
